collegeAthleteId,nflAthleteId,collegeId,collegeTeam,collegeConference,nflTeam,year,overall,round,pick,name,position,height,weight,preDraftRanking,preDraftPositionRanking,preDraftGrade,hometownInfo
483193,29217,2579,South Carolina,SEC,Houston,2013,57,2,25,D.J. Swearinger,Safety,71,208,44.0,5,86,"{'city': 'Greenwood', 'state': 'SC', 'country': 'USA', 'latitude': '34.1954001', 'longitude': '-82.1617883', 'countyFips': '45047'}"
504290,30367,2579,South Carolina,SEC,Jacksonville,2013,101,4,4,Ace Sanders,Wide Receiver,67,173,171.0,20,56,"{'city': 'Bradenton', 'state': 'FL', 'country': 'USA', 'latitude': '27.4989278', 'longitude': '-82.5748194', 'countyFips': '12081'}"
501517,29245,2579,South Carolina,SEC,San Francisco,2013,131,4,34,Marcus Lattimore,Running Back,71,221,120.0,9,68,"{'city': 'Duncan', 'state': 'SC', 'country': 'USA', 'latitude': '34.9378962', 'longitude': '-82.1451096', 'countyFips': '45083'}"
382777,30197,2579,South Carolina,SEC,Detroit,2013,132,4,35,Devin Taylor,Defensive End,79,266,124.0,16,67,"{'city': 'Beaufort', 'state': 'SC', 'country': 'USA', 'latitude': '32.4315813', 'longitude': '-80.6698286', 'countyFips': '45013'}"
483185,30285,2579,South Carolina,SEC,Dallas,2013,185,6,17,DeVonte Holloman,Outside Linebacker,73,243,111.0,8,70,"{'city': 'Charlotte', 'state': 'NC', 'country': 'USA', 'latitude': '35.2272', 'longitude': '-80.843083', 'countyFips': '37119'}"
-1032111,30039,2579,South Carolina,SEC,Cincinnati,2013,251,7,45,T.J. Johnson,Center,76,310,,6,31,"{'city': 'Aynor', 'state': 'SC', 'country': 'USA', 'latitude': '33.9998881', 'longitude': '-79.1994874', 'countyFips': '45051'}"
483208,29624,2579,South Carolina,SEC,Indianapolis,2013,254,7,48,Justice Cunningham,Tight End,75,258,,17,41,"{'city': 'Pageland', 'state': 'SC', 'country': 'USA', 'latitude': '34.7728831', 'longitude': '-80.3921893', 'countyFips': '45025'}"
