collegeAthleteId,nflAthleteId,collegeId,collegeTeam,collegeConference,nflTeam,year,overall,round,pick,name,position,height,weight,preDraftRanking,preDraftPositionRanking,preDraftGrade,hometownInfo
4240596,104104,57,Florida,SEC,Jacksonville,2020,9,1,9,CJ Henderson,Cornerback,73,204,13.0,2.0,91.0,"{'city': 'Miami', 'state': 'FL', 'country': 'USA', 'latitude': '25.7742658', 'longitude': '-80.1936589', 'countyFips': '12086'}"
3930066,104391,57,Florida,SEC,Los Angeles,2020,57,2,25,Van Jefferson,Wide Receiver,74,200,113.0,18.0,67.0,"{'city': 'Brentwood', 'state': 'TN', 'country': 'USA', 'latitude': '36.0325687', 'longitude': '-86.7825235', 'countyFips': '47187'}"
3915123,104130,57,Florida,SEC,New York,2020,79,3,15,Jabari Zuniga,Defensive End,75,264,76.0,8.0,74.0,"{'city': 'Marietta', 'state': 'GA', 'country': 'USA', 'latitude': '33.9528472', 'longitude': '-84.5496148', 'countyFips': '13067'}"
3916409,104216,57,Florida,SEC,Houston,2020,90,3,26,Jonathan Greenard,Outside Linebacker,75,263,122.0,15.0,65.0,"{'city': 'Hiram', 'state': 'GA', 'country': 'USA', 'latitude': '33.8756601', 'longitude': '-84.7621592', 'countyFips': '13223'}"
4034952,104226,57,Florida,SEC,New York,2020,120,4,14,La'Mical Perine,Running Back,71,216,72.0,7.0,75.0,"{'city': 'Mobile', 'state': 'AL', 'country': 'USA', 'latitude': '30.6943566', 'longitude': '-88.0430541', 'countyFips': '01097'}"
4034950,104693,57,Florida,SEC,Seattle,2020,214,6,36,Freddie Swain,Wide Receiver,72,197,,,,"{'city': 'Ocala', 'state': 'FL', 'country': 'USA', 'latitude': '29.1871986', 'longitude': '-82.1400923', 'countyFips': '12083'}"
4034964,104531,57,Florida,SEC,Denver,2020,252,7,38,Tyrie Cleveland,Wide Receiver,74,209,256.0,39.0,38.0,"{'city': 'Houston', 'state': 'TX', 'country': 'USA', 'latitude': '29.7589382', 'longitude': '-95.3676974', 'countyFips': '48201'}"
