collegeAthleteId,nflAthleteId,collegeId,collegeTeam,collegeConference,nflTeam,year,overall,round,pick,name,position,height,weight,preDraftRanking,preDraftPositionRanking,preDraftGrade,hometownInfo
2980100,46813,57,Florida,SEC,Jacksonville,2015,3,1,3,Dante Fowler Jr.,Defensive End,75,261,4.0,2,93,"{'city': None, 'state': None, 'country': None, 'latitude': None, 'longitude': None, 'countyFips': None}"
-1009832,46841,57,Florida,SEC,Arizona,2015,24,1,24,D.J. Humphries,Offensive Tackle,77,307,32.0,6,88,"{'city': 'Charlotte', 'state': 'NC', 'country': 'USA', 'latitude': '35.2272', 'longitude': '-80.843083', 'countyFips': '37119'}"
-1009831,46942,57,Florida,SEC,Dallas,2015,91,3,27,Chaz Green,Offensive Tackle,77,314,133.0,15,60,"{'city': 'Tampa', 'state': 'FL', 'country': 'USA', 'latitude': '27.9477595', 'longitude': '-82.458444', 'countyFips': '12057'}"
535917,46944,57,Florida,SEC,Washington,2015,95,3,31,Matt Jones,Running Back,74,231,135.0,12,60,"{'city': 'Seffner', 'state': 'FL', 'country': 'USA', 'latitude': '27.998541000000003', 'longitude': '-82.27488400114905', 'countyFips': '12057'}"
-1009830,46941,57,Florida,SEC,Denver,2015,133,4,34,Max Garcia,Center,76,309,132.0,4,60,"{'city': 'Norcross', 'state': 'GA', 'country': 'USA', 'latitude': '33.9412127', 'longitude': '-84.2135309', 'countyFips': '13135'}"
503950,47087,57,Florida,SEC,Las Vegas,2015,161,5,25,Neiron Ball,Outside Linebacker,75,236,278.0,23,36,"{'city': 'Jackson', 'state': 'GA', 'country': 'USA', 'latitude': '33.2945651', 'longitude': '-83.9660209', 'countyFips': '13035'}"
480211,47531,57,Florida,SEC,Las Vegas,2015,221,7,4,Andre Debose,Wide Receiver,72,190,,93,30,"{'city': 'Sanford', 'state': 'FL', 'country': 'USA', 'latitude': '28.8117297', 'longitude': '-81.2680345', 'countyFips': '12117'}"
3043109,47016,57,Florida,SEC,San Francisco,2015,244,7,27,Trent Brown,Offensive Guard,81,355,207.0,14,46,"{'city': None, 'state': None, 'country': None, 'latitude': None, 'longitude': None, 'countyFips': None}"
