collegeAthleteId,nflAthleteId,collegeId,collegeTeam,collegeConference,nflTeam,year,overall,round,pick,name,position,height,weight,preDraftRanking,preDraftPositionRanking,preDraftGrade,hometownInfo
482662,26073,333,Alabama,SEC,Buffalo,2011,3,1,3,Marcell Dareus,Defensive Tackle,75,319,1,1,97,"{'city': 'Huffman', 'state': 'AL', 'country': 'USA', 'latitude': '33.5992702', 'longitude': '-86.6930442', 'countyFips': '01073'}"
379062,27021,333,Alabama,SEC,Atlanta,2011,6,1,6,Julio Jones,Wide Receiver,75,220,7,2,95,"{'city': 'Foley', 'state': 'AL', 'country': 'USA', 'latitude': '30.4065868', 'longitude': '-87.6835974', 'countyFips': '01003'}"
-1001021,27044,333,Alabama,SEC,Seattle,2011,25,1,25,James Carpenter,Offensive Guard,77,324,43,2,85,"{'city': 'Augusta', 'state': 'GA', 'country': 'USA', 'latitude': '33.4709714', 'longitude': '-81.9748429', 'countyFips': '13245'}"
379061,26087,333,Alabama,SEC,New Orleans,2011,28,1,28,Mark Ingram,Running Back,69,215,20,1,92,"{'city': 'Flint', 'state': 'MI', 'country': 'USA', 'latitude': '43.0161693', 'longitude': '-83.6900211', 'countyFips': '26049'}"
191494,26219,333,Alabama,SEC,New York,2011,208,7,5,Greg McElroy,Quarterback,74,220,196,10,49,"{'city': 'Southlake', 'state': 'TX', 'country': 'USA', 'latitude': '32.9412363', 'longitude': '-97.1341783', 'countyFips': '48439'}"
